"Product","Blackbox flight data recorder by Nicholas Sherlock"
"firmwareType",3
"firmware","4.3"
"firmwarePatch",1
"firmwareVersion","4.3.1"
"Firmware revision","Betaflight 4.3.1 (8d4f005) STM32F405"
"Firmware date","Jul 13 2022 03:32:11"
"Board information","DIAT FURYF4OSD"
"Log start datetime","0000-01-01T00:00:00.000+00:00"
"Craft name",""
"frameIntervalI",256
"frameIntervalPNum",1
"frameIntervalPDenom",16
"minthrottle",1070
"maxthrottle",2000
"gyroScale",1.7453292519943295e-8
"motorOutput","158,88"
"acc_1G",2048
"vbatscale",110
"vbatmincellvoltage",330
"vbatwarningcellvoltage",350
"vbatmaxcellvoltage",430
"vbatref",1620
"currentMeterOffset",0
"currentMeterScale",400
"looptime",125
"gyro_sync_denom",1
"pid_process_denom",1
"thrMid",50
"thrExpo",0
"dynThrPID",65
"tpa_breakpoint",1350
"rc_rates","7,7,7"
"rc_expo","0,0,0"
"rates","67,67,67"
"rate_limits","1998,1998,1998"
"rollPID","45,80,40,30,120"
"pitchPID","47,84,46,34,125"
"yawPID","45,80,0,0,120"
"levelPID","50,50,75"
"magPID","40,,"
"d_min_gain",37
"d_min_advance",20
"dterm_filter_type",0
"dterm_lpf_hz",75
"dterm_lpf_dyn_hz","75,150"
"dterm_filter2_type",0
"dterm_lpf2_hz",150
"yaw_lpf_hz",100
"dterm_notch_hz",0
"dterm_notch_cutoff",0
"itermWindupPointPercent",85
"iterm_relax",1
"iterm_relax_type",1
"iterm_relax_cutoff",15
"pidAtMinThrottle",1
"anti_gravity_mode",0
"anti_gravity_threshold",250
"anti_gravity_gain",3500
"abs_control_gain",0
"use_integrated_yaw",0
"ff_transition",0
"ff_averaging",0
"ff_smooth_factor",25
"ff_jitter_factor",7
"ff_boost",15
"ff_max_rate_limit",90
"yawRateAccelLimit",0
"rateAccelLimit",0
"pidSumLimit",500
"pidSumLimitYaw",400
"deadband",0
"yaw_deadband",0
"gyro_lpf",0
"gyro_soft_type",0
"gyro_lowpass_hz",250
"gyro_lowpass_dyn_hz","250,500"
"gyro_soft2_type",0
"gyro_lowpass2_hz",500
"gyro_notch_hz","0,0"
"gyro_notch_cutoff","0,0"
"gyro_to_use",0
"dyn_notch_max_hz",600
"dyn_notch_count",3
"dyn_notch_q",300
"dyn_notch_min_hz",150
"dshot_bidir",0
"motor_poles",14
"gyro_rpm_notch_harmonics",3
"gyro_rpm_notch_q",500
"gyro_rpm_notch_min",100
"rpm_filter_fade_range_hz",50
"rpm_notch_lpf",150
"acc_lpf_hz",1000
"acc_hardware",0
"baro_hardware",0
"mag_hardware",0
"gyro_cal_on_first_arm",0
"airmode_activate_throttle",25
"serialrx_provider",9
"unsynced_fast_pwm",0
"fast_pwm_protocol",7
"motor_pwm_rate",480
"digitalIdleOffset",550
"debug_mode",41
"features",272892936
"rc_smoothing_mode",0
"rc_smoothing_auto_factor_setpoint",30
"rc_smoothing_auto_factor_throttle",30
"rc_smoothing_feedforward_hz",0
"rc_smoothing_setpoint_hz",0
"rc_smoothing_throttle_hz",0
"rc_smoothing_debug_axis",0
"rc_smoothing_active_cutoffs_ff_sp_thr","38,0,0"
"rc_smoothing_rx_average",0
"rates_type",3
"fields_disabled_mask",0
"vbat_sag_compensation",0
"dynamic_idle_min_rpm",0
"dyn_idle_p_gain",50
"dyn_idle_i_gain",50
"dyn_idle_d_gain",50
"dyn_idle_max_increase",150
"simplified_pids_mode",2
"simplified_master_multiplier",100
"simplified_i_gain",100
"simplified_d_gain",100
"simplified_pi_gain",100
"simplified_dmax_gain",100
"simplified_feedforward_gain",100
"simplified_pitch_d_gain",100
"simplified_pitch_pi_gain",100
"simplified_dterm_filter",1
"simplified_dterm_filter_multiplier",100
"simplified_gyro_filter",1
"simplified_gyro_filter_multiplier",100
"motor_output_limit",2
"throttle_limit_type",0
"throttle_limit_percent",100
"throttle_boost",5
"throttle_boost_cutoff",15
"loopIteration","time","axisP[0]","axisP[1]","axisP[2]","axisI[0]","axisI[1]","axisI[2]","axisD[0]","axisD[1]","axisF[0]","axisF[1]","axisF[2]","rcCommand[0]","rcCommand[1]","rcCommand[2]","rcCommand[3]","setpoint[0]","setpoint[1]","setpoint[2]","setpoint[3]","vbatLatest","amperageLatest","rssi","gyroADC[0]","gyroADC[1]","gyroADC[2]","accSmooth[0]","accSmooth[1]","accSmooth[2]","debug[0]","debug[1]","debug[2]","debug[3]","motor[0]","motor[1]","motor[2]","motor[3]","flightModeFlags","stateFlags","failsafePhase","rxSignalReceived","rxFlightChannelsValid","heading[0]","heading[1]","heading[2]","axisSum[0]","axisSum[1]","axisSum[2]","rcCommands[0]","rcCommands[1]","rcCommands[2]","rcCommands[3]","axisError[0]","axisError[1]","axisError[2]","motorLegacy[0]","motorLegacy[1]","motorLegacy[2]","motorLegacy[3]"
6960,7256329,-1,0,0,0,0,0,0,0,0,-1,0,-4,2,-1,1000,-1,0,0,0,1620,40,722,0,0,0,8,-6,2041,0,0,0,0,158,158,88,158,1,0,0,1,1,-0.005419968922283141,-0.005871924689171851,4.409159390545475,-1,-1,0,-1,0,0,0,-1,0,0,158,158,88,158
6976,7258323,-1,0,0,0,0,0,0,0,0,-1,0,-4,2,-1,1000,-1,0,0,0,1620,40,722,0,0,0,8,-7,2042,0,0,0,0,158,158,88,158,1,0,0,1,1,-0.0054135664254686315,-0.005865643561152577,4.409159391669553,-1,-1,0,-1,0,0,0,-1,0,0,158,158,88,158
6992,7260325,-1,0,0,0,0,0,0,0,0,0,0,-4,2,-1,1000,-1,0,0,0,1620,40,722,0,0,0,8,-7,2042,0,0,0,0,158,158,158,88,1,0,0,1,1,-0.00540719438551076,-0.005859392311936918,4.40915939278825,-1,0,0,-1,0,0,0,-1,0,0,158,158,158,88
7008,7262318,0,0,0,0,0,0,0,0,0,0,0,-4,3,-1,1000,-1,0,0,0,1620,40,722,0,0,0,8,-8,2041,0,0,0,0,158,158,158,88,1,0,0,1,1,-0.005402430201016488,-0.005853179872018758,4.409159393515263,0,0,0,-1,0,0,0,-1,0,0,158,158,158,88
7024,7264309,0,0,0,0,0,0,1,0,0,-1,0,-4,2,-1,1000,-1,0,0,0,1620,40,722,0,0,-1,8,-8,2042,0,0,0,0,158,88,158,158,1,0,0,1,1,-0.005397477367167054,-0.005847174808509683,4.409194143833538,1,-1,0,-1,0,0,0,-1,0,1,158,88,158,158
7040,7266305,0,1,1,0,0,0,0,1,0,-1,0,-4,2,-1,1000,-1,0,0,0,1620,40,722,0,-1,-2,8,-9,2042,0,0,0,0,158,88,158,158,1,0,0,1,1,-0.005393907275949953,-0.005876111072447656,4.409263629972945,0,1,1,-1,0,0,0,-1,1,2,158,88,158,158
7056,7268301,0,0,2,0,0,0,0,0,0,0,0,-4,2,-1,1000,-1,0,0,0,1617,0,722,0,0,-2,9,-11,2041,0,0,0,0,158,158,88,158,1,0,0,1,1,-0.005393484990784548,-0.005871810200273305,4.409333303373659,0,0,2,-1,0,0,0,-1,0,2,158,158,88,158
7072,7270296,-1,0,1,0,0,0,-1,-2,0,0,0,-4,2,-1,1000,-1,0,0,0,1617,0,722,0,0,0,10,-11,2041,0,0,0,0,158,158,88,158,1,0,0,1,1,-0.005393472187473043,-0.005868715055690012,4.409333303154961,-2,-2,1,-1,0,0,0,-1,0,0,158,158,88,158
7088,7272292,-1,0,0,0,0,0,-1,-1,0,0,0,-4,2,-1,1000,-1,0,0,0,1617,0,722,0,0,0,11,-12,2041,0,0,0,0,158,158,88,158,1,0,0,1,1,-0.005395016630598043,-0.005867191549583098,4.4093333026115875,-2,-1,0,-1,0,0,0,-1,0,0,158,158,88,158
7104,7274287,-1,0,0,0,0,0,0,0,0,0,0,-4,2,-1,1000,-1,0,0,0,1617,0,722,0,0,0,13,-12,2040,0,0,0,0,158,158,158,88,1,0,0,1,1,-0.005396562227835462,-0.005868793908297365,4.409333302292268,-1,0,0,-1,0,0,0,-1,0,0,158,158,158,88
7120,7276282,0,0,0,0,0,0,1,0,0,0,0,-4,2,-1,1000,-1,0,0,0,1617,0,722,0,0,1,14,-12,2040,0,0,0,0,158,88,158,158,1,0,0,1,1,-0.005398304298830567,-0.005871753928909484,4.409298482674706,1,0,0,-1,0,0,0,-1,0,-1,158,88,158,158
7136,7278276,0,0,0,0,0,0,1,0,0,0,0,-4,2,-1,1000,-1,0,0,0,1617,0,722,0,0,0,15,-12,2039,0,0,0,0,158,88,158,158,1,0,0,1,1,-0.005399843225895022,-0.005876446417113564,4.4092984825788,1,0,0,-1,0,0,0,-1,0,0,158,88,158,158
7152,7280275,0,0,0,0,0,0,0,0,0,0,0,-4,2,-1,1000,-1,0,0,0,1617,0,722,0,0,-1,16,-12,2039,0,0,0,0,158,158,88,158,1,0,0,1,1,-0.005401170615865905,-0.005882852694122504,4.409333371820921,0,0,0,-1,0,0,0,-1,0,1,158,158,88,158
7168,7282269,-1,0,1,0,0,0,-1,0,0,0,0,-4,2,-1,1000,-1,0,0,0,1617,0,722,0,0,-1,17,-13,2039,0,0,0,0,158,158,88,158,1,0,0,1,1,-0.005404037369506068,-0.005890774553985143,4.409368173475373,-2,0,1,-1,0,0,0,-1,0,1,158,158,88,158
7184,7284264,-1,0,1,0,0,0,-1,0,0,0,0,-5,2,-1,1000,-1,0,0,0,1617,0,722,0,0,-1,17,-13,2039,0,0,0,0,158,158,88,158,1,0,0,1,1,-0.0054068901624821615,-0.005898660190506463,4.409402992586998,-2,0,1,-1,0,0,0,-1,0,1,158,158,88,158
7200,7286265,-1,0,0,0,0,0,0,0,0,0,0,-5,2,-1,1000,-1,0,0,0,1617,0,722,0,0,0,18,-13,2039,0,0,0,0,158,158,88,158,1,0,0,1,1,-0.005409933934696349,-0.005907863011029268,4.409402992398319,-1,0,0,-1,0,0,0,-1,0,0,158,158,88,158
7216,7288256,-1,0,0,0,0,0,0,-1,0,0,0,-7,2,-1,1000,-1,0,0,0,1617,0,722,0,0,0,18,-13,2040,0,0,0,0,158,158,88,158,1,0,0,1,1,-0.00541295533542601,-0.0059170142687085545,4.409402992213152,-1,-1,0,-1,0,0,0,-1,0,0,158,158,88,158
7232,7290251,-1,0,0,0,0,0,0,0,0,0,0,-7,2,-1,1000,-1,0,0,0,1618,15,722,0,0,0,17,-13,2040,0,0,0,0,158,158,158,88,1,0,0,1,1,-0.0054159628154887346,-0.005924586976574173,4.409402991917762,-1,0,0,-1,0,0,0,-1,0,0,158,158,158,88
7248,7292248,-1,1,-1,0,0,0,1,1,0,0,0,-7,2,-1,1000,-1,0,0,0,1618,15,722,0,0,1,17,-12,2041,0,0,0,0,158,158,158,88,1,0,0,1,1,-0.005417619840765811,-0.005931927631268057,4.409368137731592,0,2,-1,-1,0,0,0,-1,0,-1,158,158,158,88
7264,7294243,-3,0,-1,0,0,0,0,1,-19,0,0,-14,2,-1,1000,-2,0,0,0,1618,15,723,0,0,0,15,-11,2040,0,0,0,0,158,158,158,88,1,0,0,1,1,-0.00541754010069868,-0.005936367866545412,4.409368138077432,-22,1,-1,-2,0,0,0,-2,0,0,158,158,158,88
7280,7296238,-3,0,0,0,0,0,0,0,-19,0,0,-14,2,-1,1000,-2,0,0,0,1618,15,723,0,0,-1,14,-13,2039,0,0,0,0,158,158,88,158,1,0,0,1,1,-0.005420322314928502,-0.005939455148556926,4.409402956868382,-22,0,0,-2,0,0,0,-2,0,1,158,158,88,158
7296,7298234,-4,0,1,0,0,0,0,-1,0,0,0,-15,2,-2,1000,-3,0,0,0,1618,15,723,0,0,-2,14,-14,2038,0,0,0,0,158,158,88,158,1,0,0,1,1,-0.00542442077664334,-0.00594272604811196,4.409472629557232,-4,-1,1,-3,0,0,0,-3,0,2,158,158,88,158
7312,7300227,-4,0,2,0,0,0,0,-1,0,0,0,-15,2,-2,1000,-3,0,0,0,1618,15,723,0,0,-2,14,-15,2038,0,0,0,0,158,158,88,158,1,0,0,1,1,-0.005430025610724221,-0.005945982261998562,4.409542197098369,-4,-1,2,-3,0,0,0,-3,0,2,158,158,88,158
7328,7302225,-4,0,2,0,0,0,0,0,0,0,0,-15,2,-2,1000,-3,0,0,0,1618,15,723,0,0,-2,14,-17,2038,0,0,0,0,158,158,88,158,1,0,0,1,1,-0.005438649201979509,-0.005949225449788184,4.409611938314508,-4,0,2,-3,0,0,0,-3,0,2,158,158,88,158
7344,7304221,-4,0,1,0,0,0,0,0,0,0,0,-15,2,-3,1000,-3,0,0,0,1618,15,723,0,0,-1,14,-18,2038,0,0,0,0,158,158,88,158,1,0,0,1,1,-0.005448960730233045,-0.00595226577046325,4.409646772419248,-4,0,1,-3,0,0,0,-3,0,1,158,158,88,158
7360,7306215,-4,0,1,0,0,0,0,0,0,0,0,-17,2,-3,1000,-3,0,0,0,1618,15,723,0,0,-1,14,-18,2038,0,0,0,0,158,158,158,88,1,0,0,1,1,-0.005459225362814625,-0.005955292761150756,4.409681571625485,-4,0,1,-3,0,0,0,-3,0,1,158,158,158,88
7376,7308213,-4,0,0,0,0,0,0,0,0,0,-25,-17,2,-11,1000,-3,0,-2,0,1618,15,723,0,0,-1,13,-18,2038,0,0,0,0,158,158,158,88,1,0,0,1,1,-0.005469442783014979,-0.005956790600088685,4.4097164405393645,-4,0,-25,-3,0,-2,0,-3,0,-1,158,158,158,88
7392,7310209,-4,0,-1,0,0,0,0,0,0,0,-25,-17,2,-11,1000,-3,0,-2,0,1610,0,723,0,0,-1,12,-18,2039,0,0,0,0,158,158,158,88,1,0,0,1,1,-0.005479605671102259,-0.005956758781855239,4.409751274442158,-4,0,-26,-3,0,-2,0,-3,0,-1,158,158,158,88
7408,7312203,-7,1,0,0,0,0,1,1,-28,0,0,-25,2,-11,1000,-5,0,-2,0,1610,0,723,0,0,-2,12,-18,2039,0,0,0,0,158,158,158,88,1,0,0,1,1,-0.005489516007453692,-0.005956917640302512,4.4098208754040975,-34,2,0,-5,0,-2,0,-5,0,0,158,158,158,88
7424,7314198,-7,0,0,0,0,0,0,0,0,0,0,-27,2,-11,1000,-5,0,-2,0,1610,0,723,0,0,-2,11,-19,2040,0,0,0,0,158,158,158,88,1,0,0,1,1,-0.005500882713537224,-0.005955558144797897,4.409890510732078,-7,0,0,-5,0,-2,0,-5,0,0,158,158,158,88
7440,7316194,-8,0,0,0,0,0,-1,-2,0,0,-21,-27,2,-18,1000,-5,0,-3,0,1610,0,723,0,0,-3,11,-19,2041,0,0,0,0,158,158,158,88,1,0,0,1,1,-0.005511982509770351,-0.005954388321417861,4.409995017831658,-9,-2,-21,-5,0,-3,0,-5,0,0,158,158,158,88
7456,7318189,-8,0,0,0,0,0,-1,-1,0,0,-21,-27,2,-18,1000,-5,0,-3,0,1610,0,723,0,0,-3,11,-19,2042,0,0,0,0,158,158,158,88,1,0,0,1,1,-0.005523023756905423,-0.0059532164607379225,4.410099472571127,-9,-1,-21,-5,0,-3,0,-5,0,0,158,158,158,88
7472,7320185,-8,0,0,0,0,0,0,0,0,0,0,-27,3,-18,1000,-5,0,-3,0,1610,0,723,0,0,-4,11,-20,2044,0,0,0,0,158,158,158,88,1,0,0,1,1,-0.005535294706827689,-0.005952225936217422,4.410238816094482,-8,0,0,-5,0,-3,0,-5,0,1,158,158,158,88
7488,7322181,-7,1,0,0,0,0,0,1,0,0,0,-27,3,-18,1000,-5,0,-3,0,1610,0,723,0,0,-4,10,-21,2045,0,0,0,0,158,158,158,88,1,0,0,1,1,-0.005549002887887989,-0.005949732149270234,4.410378159059955,-7,2,0,-5,0,-3,0,-5,0,1,158,158,158,88
7504,7324176,-7,1,-1,0,0,0,1,1,0,0,-34,-27,3,-28,1000,-5,0,-6,0,1610,0,723,0,0,-4,10,-21,2046,0,0,0,0,158,158,158,88,1,0,0,1,1,-0.005562641028351834,-0.005947243196360023,4.410517432203483,-6,2,-35,-5,0,-6,0,-5,0,-2,158,158,158,88
7520,7326170,-7,0,-2,0,0,0,0,0,0,0,-34,-27,3,-28,1000,-5,0,-6,0,1610,0,723,0,0,-4,10,-21,2047,0,0,0,0,158,158,158,88,1,0,0,1,1,-0.005576209511795821,-0.005944759046480362,4.41065663552511,-7,0,-36,-5,0,-6,0,-5,0,-2,158,158,158,88
7536,7328167,-7,0,-2,0,0,0,0,0,0,0,0,-27,3,-28,1000,-5,0,-6,0,1610,0,723,0,0,-4,10,-22,2047,0,0,0,0,158,158,158,88,1,0,0,1,1,-0.005591210638656345,-0.005942290056143583,4.410796047839876,-7,0,-2,-5,0,-6,0,-5,0,-2,158,158,158,88
7552,7330162,-8,1,-5,0,0,0,0,1,0,0,-41,-28,5,-38,1000,-6,1,-9,0,1618,50,723,0,0,-4,10,-22,2047,0,0,0,0,158,158,158,88,1,0,0,1,1,-0.005606144999556122,-0.005939834446718499,4.410935320516695,-8,2,-46,-6,1,-9,0,-6,1,-5,158,158,158,88
7568,7332157,-7,2,-6,0,0,0,0,2,0,0,-41,-28,5,-38,1000,-6,1,-9,0,1618,50,723,0,-1,-4,10,-22,2048,0,0,0,0,158,158,158,88,1,0,0,1,1,-0.005621000140991507,-0.005972096490650668,4.411074397453289,-7,4,-47,-6,1,-9,0,-6,2,-5,158,158,158,88
7584,7334154,-7,1,-6,0,0,0,1,-1,0,0,0,-28,5,-38,1000,-6,1,-9,0,1618,50,723,-1,0,-5,10,-23,2049,0,0,0,0,158,158,158,88,1,0,0,1,1,-0.005671807492807712,-0.005969747433858551,4.411248663015796,-6,0,-6,-6,1,-9,0,-5,1,-4,158,158,158,88
7600,7336147,-7,0,-9,0,0,0,0,-2,0,0,-47,-28,5,-48,1000,-6,1,-12,0,1618,50,723,0,0,-5,10,-23,2049,0,0,0,0,158,158,158,88,1,0,0,1,1,-0.005687690956261245,-0.0059674109503520326,4.411422579494174,-7,-2,-56,-6,1,-12,0,-6,1,-7,158,158,158,88
7616,7338143,-8,1,-10,0,0,0,-1,0,0,0,-47,-29,5,-48,1000,-6,1,-12,0,1618,50,723,0,0,-5,10,-24,2050,0,0,0,0,158,158,158,88,1,0,0,1,1,-0.005704977960447647,-0.005965081494082784,4.411596757262922,-9,1,-57,-6,1,-12,0,-6,1,-7,158,158,158,88
7632,7340139,-13,1,-13,0,0,0,-2,1,-106,0,-41,-38,5,-56,1000,-9,1,-15,0,1618,50,723,0,0,-5,10,-25,2051,0,0,0,0,158,158,158,88,1,0,0,1,1,-0.0057236618833964815,-0.005962757803491267,4.411770934519395,-121,2,-54,-9,1,-15,0,-9,1,-10,158,158,158,88
7648,7342133,-13,1,-14,0,0,0,-1,0,-106,0,-41,-38,5,-56,1000,-9,1,-15,0,1618,50,723,1,0,-5,11,-25,2052,0,0,0,0,158,158,158,88,1,0,0,1,1,-0.005707558753108833,-0.005961913863156153,4.411944937351962,-120,1,-55,-9,1,-15,0,-10,1,-10,158,158,158,88
7664,7344129,-13,3,-17,0,0,0,0,-2,0,26,-30,-38,15,-63,1000,-9,3,-18,0,1618,50,723,0,1,-6,11,-26,2052,0,0,0,0,158,158,158,88,1,0,0,1,1,-0.005727450469748177,-0.005926546883659075,4.412154150558255,-13,27,-47,-9,3,-18,0,-9,2,-12,158,158,158,88
7680,7346125,-12,3,-17,0,0,0,0,-1,0,26,-30,-38,15,-63,1000,-9,3,-18,0,1618,50,723,0,0,-6,12,-27,2052,0,0,0,0,158,158,158,88,1,0,0,1,1,-0.0057487309813275735,-0.005927500853866161,4.4123631645812225,-12,28,-47,-9,3,-18,0,-9,3,-12,158,158,158,88
7696,7348118,-12,4,-21,0,0,0,0,1,0,0,-25,-38,15,-71,1000,-9,3,-22,0,1618,50,723,0,0,-6,13,-27,2052,0,0,0,0,158,158,158,88,1,0,0,1,1,-0.005769918017618964,-0.005929929569909594,4.4125718645466625,-12,5,-46,-9,3,-22,0,-9,3,-16,158,158,158,88
7712,7350115,-12,7,-22,0,0,0,0,2,0,28,-25,-38,23,-71,1000,-9,5,-22,0,1618,0,723,0,0,-6,13,-27,2052,0,0,0,0,158,158,158,88,1,0,0,1,1,-0.0057910075306601815,-0.005932356088327058,4.412780983363059,-12,37,-47,-9,5,-22,0,-9,5,-16,158,158,158,88
7728,7352110,-13,7,-26,0,0,0,0,0,0,28,-24,-39,23,-78,1000,-9,5,-26,0,1618,0,723,0,0,-6,13,-26,2052,0,0,0,0,158,158,158,88,1,0,0,1,1,-0.005810533144704261,-0.005934776864284551,4.412989893164583,-13,35,-50,-9,5,-26,0,-9,5,-20,158,158,158,88
7744,7354105,-13,6,-27,0,0,0,0,0,0,0,-24,-39,23,-78,1000,-9,5,-26,0,1618,0,723,0,0,-6,13,-26,2052,0,0,0,0,158,158,158,88,1,0,0,1,1,-0.0058299713222983865,-0.005937192770585629,4.4131988029402045,-13,6,-51,-9,5,-26,0,-9,5,-20,158,158,158,88
7760,7356101,-17,10,-32,0,0,0,0,-1,-59,39,-39,-48,33,-87,1000,-12,7,-30,0,1618,0,723,0,0,-6,13,-25,2052,0,0,0,0,158,158,158,88,1,0,0,1,1,-0.0058478552655889145,-0.0059396044900368325,4.413407817866424,-76,48,-71,-12,7,-30,0,-12,7,-24,158,158,158,88
7776,7358096,-17,11,-34,0,0,0,0,0,-59,39,-39,-48,33,-87,1000,-12,7,-30,0,1618,0,723,0,0,-6,13,-24,2052,0,0,0,0,158,158,158,88,1,0,0,1,1,-0.0058641951095322695,-0.005942010521459742,4.413616728507833,-76,50,-73,-12,7,-30,0,-12,7,-24,158,158,158,88
7792,7360081,-18,16,-37,0,0,0,0,2,0,44,-6,-49,42,-93,1000,-13,10,-34,0,1618,0,723,0,-1,-6,13,-24,2052,0,0,0,0,158,158,158,88,1,0,0,1,1,-0.005880462076684378,-0.005978945215953704,4.41382438819041,-18,62,-43,-13,10,-34,0,-13,11,-28,158,158,158,88
7808,7362086,-18,15,-39,0,0,0,0,0,0,44,-6,-49,42,-93,1000,-13,10,-34,0,1618,0,723,0,0,-7,12,-23,2052,0,0,0,0,158,158,158,88,1,0,0,1,1,-0.005894973236531758,-0.005979987426599543,4.414069339653701,-18,59,-45,-13,10,-34,0,-13,10,-27,158,158,158,88
7824,7364081,-17,21,-44,0,0,0,1,-1,0,56,-46,-49,53,-102,1000,-13,14,-39,0,1618,0,723,0,0,-7,12,-23,2051,0,0,0,0,158,158,158,88,1,0,0,1,1,-0.005909435322268116,-0.005981032136579064,4.414313069358492,-16,76,-90,-13,14,-39,0,-13,14,-32,158,158,158,88
7840,7366076,-25,21,-46,0,0,0,1,-1,-69,56,-46,-62,53,-102,1000,-18,14,-39,0,1618,0,723,0,0,-6,12,-22,2050,0,0,0,0,158,158,158,88,1,0,0,1,1,-0.005922592167320337,-0.005981881424733259,4.414521980221648,-93,76,-92,-18,14,-39,0,-18,14,-33,158,158,158,88
7856,7368071,-25,27,-53,0,0,-3,0,0,-69,35,-58,-62,63,-112,1000,-18,18,-46,0,1618,0,723,0,0,-6,11,-21,2050,0,0,0,0,158,158,158,88,1,0,0,1,1,-0.0059342355218689824,-0.005981276474573966,4.414730891435837,-94,62,-114,-18,18,-46,0,-18,18,-40,158,158,158,88
7872,7370068,-25,27,-55,-1,1,-7,-1,0,0,35,-58,-62,63,-112,1000,-18,18,-46,0,1619,50,723,0,0,-6,11,-19,2049,0,0,0,0,158,158,158,88,1,0,0,1,1,-0.005942928489020766,-0.005980688210279936,4.414940013107479,-27,63,-120,-18,18,-46,0,-18,18,-40,158,158,158,88
7888,7372062,-32,36,-62,-2,2,-12,-1,0,-63,48,-33,-72,74,-121,1014,-22,24,-52,20,1619,50,723,0,0,-6,10,-18,2049,0,0,0,0,158,158,158,88,1,0,0,1,1,-0.005950133346052119,-0.005978652913862556,4.4151488209741485,-98,86,-107,-22,24,-52,2,-22,24,-46,158,158,158,88
7904,7374058,-33,35,-64,-3,3,-18,0,-1,-63,48,-33,-72,74,-121,1023,-22,24,-52,32,1619,50,723,0,0,-7,10,-18,2048,0,0,0,0,158,158,158,88,1,0,0,1,1,-0.005957105852682432,-0.005976845970749577,4.415392675039449,-99,85,-115,-22,24,-52,3.2,-22,24,-45,158,158,158,88
7920,7376054,-34,46,-71,-4,4,-25,0,-1,0,62,-54,-73,87,-131,1029,-23,30,-59,39,1619,50,723,0,0,-7,10,-17,2047,0,0,0,0,158,158,158,88,1,0,0,1,1,-0.005962608350632131,-0.005975059022986416,4.415636529607811,-38,111,-150,-23,30,-59,3.9,-23,30,-52,158,158,158,88
7936,7378048,-41,55,-74,-6,6,-32,0,0,-165,119,-54,-82,96,-131,1035,-27,35,-59,46,1619,50,723,0,0,-7,10,-16,2046,0,0,0,0,158,158,158,88,1,0,0,1,1,-0.0059666505011262486,-0.0059732901374629525,4.4158801403372525,-212,180,-160,-27,35,-59,4.6,-27,35,-52,158,158,158,88
7952,7380043,-41,56,-82,-8,8,-40,0,2,-165,119,-52,-82,96,-141,1044,-27,35,-67,57,1619,50,723,0,0,-7,10,-15,2045,0,0,0,0,158,158,158,88,1,0,0,1,1,-0.005969238242947566,-0.005971541020036344,4.416123873750938,-214,185,-174,-27,35,-67,5.7,-27,35,-60,158,158,158,88
7968,7382038,-51,70,-91,-10,10,-50,0,0,-34,49,-135,-92,109,-148,1051,-33,44,-73,65,1619,50,723,0,0,-7,10,-15,2044,0,0,0,0,158,158,158,88,1,0,0,1,1,-0.005971822185831554,-0.005969810418424853,4.416367607151375,-95,129,-276,-33,44,-73,6.5,-33,44,-66,158,158,158,88
7984,7384034,-51,72,-95,-12,13,-60,1,0,-34,49,-135,-92,109,-148,1057,-33,44,-73,71,1619,50,723,0,0,-6,10,-14,2044,0,0,0,0,158,158,158,88,1,0,0,1,1,-0.005973160459029311,-0.00596788302132713,4.4165766264731845,-96,134,-290,-33,44,-73,7.1,-33,44,-67,158,158,158,88
8000,7386029,-61,88,-103,-15,15,-72,1,0,-29,57,6,-102,123,-157,1068,-39,54,-81,84,1619,50,723,0,0,-6,10,-13,2043,0,0,0,0,158,158,158,88,1,0,0,1,1,-0.005973062966318803,-0.005965973634433475,4.416785541596575,-104,160,-169,-39,54,-81,8.4,-39,54,-75,158,158,158,88
8016,7388025,-62,99,-114,-18,18,-78,0,0,-29,124,-177,-102,132,-166,1076,-39,60,-89,93,1619,50,723,0,0,-6,10,-12,2042,0,0,0,0,158,158,158,88,1,0,0,1,1,-0.0059715363348675134,-0.0059640830892219695,4.416994561963723,-109,241,-369,-39,60,-89,9.3,-39,60,-83,158,158,158,88
8032,7390020,-74,111,-118,-21,20,-84,-1,0,-36,107,-177,-112,141,-166,1084,-46,67,-89,101,1622,52,723,0,0,-6,10,-11,2042,0,0,0,0,158,158,158,88,1,0,0,1,1,-0.005968581051364473,-0.005962201170270686,4.417203478139862,-132,238,-379,-46,67,-89,10.1,-46,67,-83,158,158,158,88
8048,7392016,-77,112,-131,-24,24,-91,-1,0,4,107,-45,-113,141,-178,1092,-46,67,-101,110,1622,52,723,0,0,-6,10,-11,2042,0,0,0,0,158,158,158,88,1,0,0,1,1,-0.005965636343437508,-0.005960328719490861,4.417412499032826,-98,243,-267,-46,67,-101,11,-46,67,-95,158,158,158,88
8064,7394012,-90,133,-135,-28,26,-98,0,0,-274,55,-45,-124,156,-178,1102,-54,80,-101,121,1622,52,723,0,0,-6,10,-11,2042,0,0,0,0,158,158,158,88,1,0,0,1,1,-0.005962702770244973,-0.0059584650576290366,4.417621519922877,-392,214,-278,-54,80,-101,12.1,-54,80,-95,158,158,158,88
8080,7396007,-91,150,-151,-32,28,-107,0,-1,-274,269,-110,-124,168,-193,1110,-54,91,-117,129,1622,52,723,0,0,-6,10,-11,2042,0,0,0,0,158,158,158,88,1,0,0,1,1,-0.0059597808891816186,-0.005956609508735163,4.417830436090269,-397,446,-368,-54,91,-117,12.9,-54,91,-111,158,158,158,88
8096,7398001,-104,151,-157,-36,31,-117,0,-1,-23,269,-110,-135,168,-193,1121,-63,91,-117,141,1622,52,723,0,0,-5,10,-11,2042,0,0,0,0,158,158,158,88,1,0,0,1,1,-0.005957077369088168,-0.005954555256110144,4.418004445670461,-163,450,-384,-63,91,-117,14.1,-63,91,-112,158,158,158,88
8112,7399997,-106,175,-169,-40,32,-128,0,0,9,11,5,-137,183,-203,1130,-64,106,-128,151,1622,52,723,0,0,-5,10,-10,2042,0,0,0,0,158,158,158,88,1,0,0,1,1,-0.005952957615225761,-0.005952511462652725,4.418178630318388,-137,218,-292,-64,106,-128,15.1,-64,106,-123,158,158,158,88
8128,7401992,-123,187,-182,-44,33,-139,0,-1,-350,41,-140,-149,191,-211,1138,-74,114,-136,159,1622,52,723,0,0,-5,10,-10,2042,0,0,0,0,158,158,158,88,1,0,0,1,1,-0.00594885455121206,-0.005950476215533505,4.418352727697474,-500,260,-400,-74,114,-136,15.9,-74,114,-131,158,158,158,88
8144,7403986,-124,190,-195,-49,35,-152,-2,-1,-350,-17,-121,-149,192,-218,1149,-74,115,-145,171,1622,52,723,1,0,-5,10,-11,2042,0,0,0,0,158,158,158,88,1,0,0,1,1,-0.005911489234081972,-0.005948443374098933,4.41852673726603,-500,207,-400,-74,115,-145,17.1,-75,115,-140,158,158,158,88
8160,7405972,-139,220,-199,-53,36,-165,-1,0,-4,705,-121,-160,209,-218,1156,-84,135,-145,177,1622,52,723,0,0,-5,10,-11,2043,0,0,0,0,158,158,158,88,1,0,0,1,1,-0.005908931210869476,-0.005946407215683287,4.418700048701854,-197,500,-400,-84,135,-145,17.7,-84,135,-140,158,158,158,88
8176,7407978,-140,221,-201,-58,37,-177,0,2,-4,705,-121,-160,209,-218,1156,-84,135,-145,173,1622,52,723,0,0,-5,10,-11,2043,0,0,0,0,158,158,158,88,1,0,0,1,1,-0.005906372490125108,-0.0059443905804659565,4.418875105464288,-202,500,-400,-84,135,-145,17.3,-84,135,-140,158,158,158,88
8192,7409972,-152,249,-223,-63,37,-193,0,0,3,118,-17,-169,224,-237,1175,-92,152,-168,198,1619,0,723,0,0,-5,10,-12,2044,0,0,0,0,158,158,158,88,1,0,0,1,1,-0.0059052379359739275,-0.005942368461804162,4.41904911448644,-212,404,-400,-92,152,-168,19.8,-92,152,-163,158,158,158,88
8208,7411968,-166,252,-231,-67,37,-210,2,0,-243,-23,-17,-179,226,-237,1184,-102,154,-168,207,1619,0,723,0,0,-5,10,-12,2044,0,0,0,0,158,158,158,88,1,0,0,1,1,-0.005904106102955158,-0.005940356774715491,4.419223298037901,-474,266,-400,-102,154,-168,20.7,-102,154,-163,158,158,158,88
8224,7413964,-177,278,-248,-70,38,-228,2,0,-79,585,-80,-187,239,-248,1193,-110,171,-183,215,1619,0,723,0,0,-4,10,-12,2043,0,0,0,0,158,158,158,88,1,0,0,1,1,-0.005903192726114013,-0.005938157771445066,4.4193626448047265,-324,500,-400,-110,171,-183,21.5,-110,171,-179,158,158,158,88
8240,7415959,-180,281,-254,-75,38,-245,-1,-2,15,-21,-80,-188,241,-248,1200,-111,173,-183,222,1619,0,723,0,0,-4,11,-11,2043,0,0,0,0,158,158,158,88,1,0,0,1,1,-0.005900871316589798,-0.005937379778412729,4.419501922479347,-241,296,-400,-111,173,-183,22.2,-111,173,-179,158,158,158,88
8256,7417955,-201,311,-269,-77,38,-265,-2,-1,-436,617,-50,-200,256,-258,1208,-124,193,-196,229,1619,0,723,1,0,-3,11,-11,2043,0,0,0,0,158,158,158,88,1,0,0,1,1,-0.005864027942752561,-0.005936397484610522,4.419606433169025,-500,500,-400,-124,193,-196,22.9,-125,193,-193,158,158,158,88
8272,7419950,-203,312,-276,-81,38,-284,-1,0,15,617,11,-202,256,-259,1215,-126,193,-198,236,1619,0,723,0,0,-3,11,-10,2043,0,0,0,0,158,158,158,88,1,0,0,1,1,-0.0058606211514311765,-0.005935419488472135,4.419710892040896,-270,500,-400,-126,193,-198,23.6,-126,193,-195,158,158,158,88
8288,7421945,-222,334,-292,-83,38,-305,0,0,-383,-122,-466,-213,266,-269,1225,-139,207,-212,246,1619,0,723,0,0,-4,11,-9,2043,0,0,0,0,158,158,158,88,1,0,0,1,1,-0.0058556151767080004,-0.005934649373273862,4.419850170788822,-500,250,-400,-139,207,-212,24.6,-139,207,-208,158,158,158,88
8304,7423941,-236,336,-297,-84,38,-326,3,0,-154,-23,-466,-222,267,-269,1233,-149,208,-212,254,1619,0,723,0,0,-4,12,-9,2043,0,0,0,0,158,158,158,88,1,0,0,1,1,-0.0058506283099256946,-0.0059352877247921525,4.4199895195314856,-471,351,-400,-149,208,-212,25.4,-149,208,-208,158,158,158,88
8320,7425936,-235,356,-310,-87,38,-348,3,0,-154,390,17,-222,276,-278,1241,-149,221,-225,262,1619,0,723,-1,0,-4,12,-9,2042,0,0,0,0,158,158,158,88,1,0,0,1,1,-0.005880388836893271,-0.005935936524299795,4.420128798468966,-473,500,-400,-149,221,-225,26.2,-148,221,-221,158,158,158,88
8336,7427931,-254,356,-326,-89,39,-371,0,1,71,390,-190,-232,276,-286,1249,-161,221,-236,270,1619,0,723,0,0,-4,11,-8,2043,0,0,0,0,158,158,158,88,1,0,0,1,1,-0.0058739399957448086,-0.005935173446191341,4.420268077768745,-272,500,-400,-161,221,-236,27,-161,221,-232,158,158,158,88
8352,7429927,-257,379,-332,-92,40,-394,0,0,16,38,-190,-233,286,-286,1256,-163,236,-236,276,1621,52,723,0,0,-4,11,-8,2043,0,0,0,0,158,158,158,88,1,0,0,1,1,-0.0058675160201717026,-0.005934413957637855,4.420407426879875,-333,457,-400,-163,236,-236,27.6,-163,236,-232,158,158,158,88
8368,7431921,-281,379,-342,-93,41,-400,-1,-1,-545,38,112,-245,286,-292,1265,-179,236,-245,286,1621,52,723,0,0,-4,12,-8,2043,0,0,0,0,158,158,158,88,1,0,0,1,1,-0.005861118006969545,-0.005935054717164483,4.4205466365492745,-500,457,-400,-179,236,-245,28.6,-179,236,-241,158,158,158,88
8384,7433917,-283,381,-346,-95,46,-400,-1,-2,17,-20,112,-247,287,-292,1271,-181,238,-245,291,1621,52,723,0,0,-3,12,-8,2044,0,0,0,0,158,158,158,88,1,0,0,1,1,-0.005854941981016833,-0.00593548192500971,4.420651149058557,-362,405,-400,-181,238,-245,29.1,-181,238,-242,158,158,158,88
8400,7435902,-302,405,-361,-95,47,-400,0,0,-386,526,-37,-257,297,-301,1281,-194,253,-259,302,1621,52,723,0,0,-3,12,-9,2044,0,0,0,0,158,158,158,88,1,0,0,1,1,-0.005850188132860842,-0.0059359040808635985,4.420755085059978,-500,500,-400,-194,253,-259,30.2,-194,253,-256,158,158,158,88
8416,7437908,-302,405,-366,-98,52,-400,0,2,-386,526,-37,-257,297,-301,1287,-194,253,-259,307,1621,52,723,0,0,-3,10,-9,2044,0,0,0,0,158,158,158,88,1,0,0,1,1,-0.005845446171152469,-0.0059335453263073025,4.420860120240767,-500,500,-400,-194,253,-259,30.7,-194,253,-256,158,158,158,88
8432,7439903,-322,405,-379,-99,61,-400,1,2,8,0,-24,-267,297,-308,1294,-208,253,-271,313,1621,52,723,0,0,-3,9,-9,2044,0,0,0,0,158,158,158,88,1,0,0,1,1,-0.0058407262181396765,-0.00592980166168284,4.420964579270212,-412,468,-400,-208,253,-271,31.3,-208,253,-268,158,158,158,88
8448,7441899,-322,425,-383,-102,65,-400,1,-1,8,198,-24,-267,306,-308,1305,-208,267,-271,326,1621,52,723,0,0,-4,9,-9,2044,0,0,0,0,158,158,158,88,1,0,0,1,1,-0.005835818573138642,-0.005926276443863596,4.421103927445301,-415,500,-400,-208,267,-271,32.6,-208,267,-267,158,158,158,88
8464,7443894,-345,425,-384,-103,74,-400,0,-2,-51,198,0,-278,306,-308,1312,-224,267,-271,332,1621,52,723,0,0,-4,8,-9,2044,0,0,0,0,158,158,158,88,1,0,0,1,1,-0.005830930551229769,-0.005921377233073386,4.421243205613022,-499,500,-400,-224,267,-271,33.2,-224,267,-267,158,158,158,88
8480,7445889,-346,425,-398,-105,87,-400,-1,0,-51,0,-196,-278,306,-317,1318,-224,267,-285,337,1621,52,723,0,0,-3,7,-9,2044,0,0,0,0,158,158,158,88,1,0,0,1,1,-0.005826267440546787,-0.0059149091140390025,4.421347664248342,-500,500,-400,-224,267,-285,33.7,-224,267,-282,158,158,158,88
8496,7447884,-365,426,-404,-106,105,-400,-1,2,1,0,-196,-287,306,-317,1326,-237,267,-285,345,1621,52,723,0,0,-2,7,-9,2045,0,0,0,0,158,158,158,88,1,0,0,1,1,-0.005821820254027821,-0.005908256632780647,4.421417303544303,-471,500,-400,-237,267,-285,34.5,-237,267,-283,158,158,158,88
8512,7449879,-367,447,-419,-108,115,-400,-1,1,11,203,-182,-288,314,-324,1334,-239,281,-298,353,1620,0,723,0,0,-1,6,-9,2046,0,0,0,0,158,158,158,88,1,0,0,1,1,-0.005817587919169701,-0.005900037465310436,4.421452123312338,-465,500,-400,-239,281,-298,35.3,-239,281,-297,158,158,158,88
8528,7451875,-367,446,-425,-116,129,-400,0,-2,11,203,-182,-288,314,-324,1344,-239,281,-298,364,1620,0,723,0,0,-1,4,-9,2046,0,0,0,0,158,158,158,88,1,0,0,1,1,-0.005813372420771095,-0.005889088235909833,4.421486960151621,-472,500,-400,-239,281,-298,36.4,-239,281,-297,158,158,158,88
8544,7453870,-397,449,-427,-117,146,-400,0,-1,-321,0,0,-302,316,-324,1351,-261,283,-298,371,1620,0,723,0,0,-1,3,-8,2047,0,0,0,0,158,158,158,88,1,0,0,1,1,-0.005807786001320444,-0.005876794637609892,4.421521779894892,-500,500,-400,-261,283,-298,37.1,-261,283,-297,158,158,158,88
8560,7455865,-400,449,-442,-118,167,-400,1,2,8,0,-205,-303,316,-333,1360,-263,283,-313,380,1620,0,723,0,0,-1,3,-7,2047,0,0,0,0,158,158,158,88,1,0,0,1,1,-0.0058008436639927245,-0.005864550067229744,4.421556600181316,-500,500,-400,-263,283,-313,38,-263,283,-312,158,158,158,88
8576,7457861,-419,471,-447,-118,179,-400,1,1,-445,253,-205,-312,324,-333,1367,-277,298,-313,387,1620,0,723,0,0,-1,2,-7,2048,0,0,0,0,158,158,158,88,1,0,0,1,1,-0.005793921029043865,-0.005850969470897767,4.421591437730894,-500,500,-400,-277,298,-313,38.7,-277,298,-312,158,158,158,88
8592,7459848,-419,470,-448,-120,195,-400,0,-1,-445,253,0,-312,324,-333,1373,-277,298,-313,392,1620,0,723,0,0,-1,3,-7,2049,0,0,0,0,158,158,158,88,1,0,0,1,1,-0.005787019076759004,-0.005838808992544453,4.42162611838862,-500,500,-400,-277,298,-313,39.2,-277,298,-312,158,158,158,88
8608,7461841,-419,469,-449,-128,215,-400,-1,-2,0,0,0,-312,324,-333,1382,-277,298,-313,402,1620,0,723,0,1,-2,4,-7,2049,0,0,0,0,158,158,158,88,1,0,0,1,1,-0.005779942790374629,-0.005793585689901042,4.42169588943966,-500,500,-400,-277,298,-313,40.2,-277,297,-311,158,158,158,88
8624,7463846,-452,469,-465,-129,238,-400,-1,0,-320,0,-246,-325,324,-343,1389,-300,298,-331,408,1620,0,723,0,0,-1,4,-8,2050,0,0,0,0,158,158,158,88,1,0,0,1,1,-0.005774459790711477,-0.005782980285499759,4.42173088371771,-500,500,-400,-300,298,-331,40.8,-300,298,-330,158,158,158,88
8640,7465842,-452,469,-472,-131,264,-400,0,2,-320,0,-246,-325,324,-343,1396,-300,298,-331,415,1620,0,723,0,0,-1,5,-8,2050,0,0,0,0,158,158,158,88,1,0,0,1,1,-0.00576899952985027,-0.005773786377662693,4.421765721101884,-500,500,-400,-300,298,-331,41.5,-300,298,-330,158,158,158,88
8656,7467825,-452,469,-474,-138,292,-400,0,1,0,0,0,-325,324,-343,1404,-300,298,-331,423,1620,0,723,0,0,-1,5,-8,2050,0,0,0,0,158,158,158,88,1,0,0,1,1,-0.005763562234634168,-0.005764627523838488,4.421800331590582,-500,500,-400,-300,298,-331,42.3,-300,298,-330,158,158,158,88
8672,7469832,-476,472,-487,-139,321,-400,0,0,-236,4,-185,-335,326,-351,1413,-317,300,-344,433,1617,0,723,0,0,-1,5,-8,2051,0,0,0,0,158,158,158,88,1,0,0,1,1,-0.005758136191199274,-0.005755499369854288,4.4218353609574095,-500,500,-400,-317,300,-344,43.3,-317,300,-343,158,158,158,88
8688,7471827,-478,494,-492,-142,338,-400,1,0,-4,433,-185,-337,334,-351,1413,-319,315,-344,429,1617,0,723,0,0,-1,5,-8,2051,0,0,0,0,158,158,158,88,1,0,0,1,1,-0.0057527328192142815,-0.005746406020811429,4.42187018088207,-500,500,-400,-319,315,-344,42.9,-319,315,-343,158,158,158,88
8704,7473823,-478,493,-493,-150,359,-400,0,-2,-4,433,0,-337,334,-351,1426,-319,315,-344,445,1617,0,723,0,0,-1,7,-9,2051,0,0,0,0,158,158,158,88,1,0,0,1,1,-0.0057487148718679115,-0.005740076853802708,4.42190501813787,-500,500,-400,-319,315,-344,44.5,-319,315,-343,158,158,158,88
8720,7475818,-500,493,-504,-153,382,-400,-1,0,-228,0,-154,-345,334,-357,1426,-335,315,-356,442,1617,0,723,0,0,-2,7,-10,2051,0,0,0,0,158,158,158,88,1,0,0,1,1,-0.005745876116762327,-0.0057339720829394,4.421974656761746,-500,500,-400,-335,315,-356,44.2,-335,315,-354,158,158,158,88
8736,7477803,-503,496,-508,-158,400,-400,0,2,2,4,-154,-347,336,-357,1440,-337,317,-356,459,1617,0,723,0,0,-1,9,-10,2051,0,0,0,0,158,158,158,88,1,0,0,1,1,-0.005743248568740618,-0.005730413153921302,4.422009301908071,-500,500,-400,-337,317,-356,45.9,-337,317,-355,158,158,158,88
8752,7479798,-503,495,-509,-169,400,-400,0,0,2,4,0,-347,336,-357,1441,-337,317,-356,457,1617,0,723,0,0,-1,10,-11,2051,0,0,0,0,158,158,158,88,1,0,0,1,1,-0.0057419897713158,-0.005728228786064183,4.422044121280126,-500,500,-400,-337,317,-356,45.7,-337,317,-355,158,158,158,88
8768,7481793,-535,494,-523,-170,400,-400,0,-1,-350,0,-192,-359,336,-364,1451,-360,317,-370,469,1617,0,723,0,0,-1,11,-11,2051,0,0,0,0,158,158,158,88,1,0,0,1,1,-0.005740735745978286,-0.005727411149679031,4.422078940837896,-500,500,-400,-360,317,-370,46.9,-360,317,-369,158,158,158,88
8784,7483789,-534,494,-529,-173,400,-400,0,0,-350,0,-192,-359,336,-364,1461,-360,317,-370,480,1617,0,723,0,0,-1,12,-11,2051,0,0,0,0,158,158,158,88,1,0,0,1,1,-0.0057394863198073805,-0.005727953475486497,4.422113778034415,-500,500,-400,-360,317,-370,48,-360,317,-369,158,158,158,88
8800,7485786,-537,520,-531,-180,400,-400,-1,0,14,253,0,-360,346,-364,1467,-362,335,-370,485,1617,0,723,0,0,0,12,-12,2050,0,0,0,0,158,158,158,88,1,0,0,1,1,-0.005739803286511642,-0.005728302200401052,4.422113777967611,-500,500,-400,-362,335,-370,48.5,-362,335,-370,158,158,158,88
8816,7487779,-561,520,-532,-182,400,-400,0,0,-323,253,0,-369,346,-364,1473,-379,335,-370,491,1617,0,723,0,0,0,13,-12,2050,0,0,0,0,158,158,158,88,1,0,0,1,1,-0.005740119021020256,-0.005730003039345908,4.42211377808729,-500,500,-400,-379,335,-370,49.1,-379,335,-370,158,158,158,88
8832,7489776,-563,520,-550,-184,400,-400,1,1,14,0,-263,-370,346,-374,1478,-381,335,-389,495,1618,50,723,0,0,0,13,-12,2049,0,0,0,0,158,158,158,88,1,0,0,1,1,-0.0057404412911733664,-0.005731705025832573,4.422113778204832,-500,500,-400,-381,335,-389,49.5,-381,335,-389,158,158,158,88
8848,7491772,-563,519,-556,-194,400,-400,0,-1,14,0,-263,-370,346,-374,1487,-381,335,-389,505,1618,50,723,0,0,-1,13,-13,2048,0,0,0,0,158,158,158,88,1,0,0,1,1,-0.005741921441489694,-0.005733607540476903,4.422148614601016,-500,500,-400,-381,335,-389,50.5,-381,335,-388,158,158,158,88
8864,7493765,-562,518,-558,-208,400,-400,0,-2,0,0,0,-370,346,-374,1487,-381,335,-389,502,1618,50,723,0,0,-1,14,-13,2047,0,0,0,0,158,158,158,88,1,0,0,1,1,-0.00574340363445579,-0.005736859405556362,4.422183398823143,-500,500,-400,-381,335,-389,50.2,-381,335,-388,158,158,158,88
8880,7495761,-601,518,-569,-210,400,-400,0,1,-281,0,-164,-384,346,-381,1500,-408,335,-401,518,1618,50,723,0,0,-1,15,-13,2046,0,0,0,0,158,158,158,88,1,0,0,1,1,-0.005744887224139167,-0.0057414545548948375,4.422218235591124,-500,500,-400,-408,335,-401,51.8,-408,335,-400,158,158,158,88
8896,7497756,-604,521,-574,-210,400,-400,0,1,-2,4,-164,-385,347,-381,1500,-410,337,-401,515,1618,50,723,0,0,-1,14,-14,2046,0,0,0,0,158,158,158,88,1,0,0,1,1,-0.0057477108952090775,-0.0057446861122538734,4.422253054231508,-500,500,-400,-410,337,-401,51.5,-410,337,-400,158,158,158,88
8912,7499752,-603,541,-576,-217,400,-400,0,0,-2,379,0,-385,354,-381,1513,-410,351,-401,531,1618,50,723,0,0,-1,15,-14,2046,0,0,0,0,158,158,158,88,1,0,0,1,1,-0.005750523292791606,-0.005749250252805066,4.422287890514406,-500,500,-400,-410,351,-401,53.1,-410,351,-400,158,158,158,88
8928,7501746,-628,540,-593,-219,400,-400,0,-2,-240,379,-238,-394,354,-389,1521,-428,351,-418,539,1618,50,723,0,0,0,15,-14,2046,0,0,0,0,158,158,158,88,1,0,0,1,1,-0.0057535242682816,-0.005753597433622305,4.4222878900281115,-500,500,-400,-428,351,-418,53.9,-428,351,-418,158,158,158,88
8944,7503742,-628,540,-599,-222,400,-400,0,0,-240,0,-238,-394,354,-389,1521,-428,351,-418,536,1618,50,723,0,0,-1,15,-14,2046,0,0,0,0,158,158,158,88,1,0,0,1,1,-0.0057563138662456315,-0.005758127851265744,4.4223227263157625,-500,500,-400,-428,351,-418,53.6,-428,351,-417,158,158,158,88
8960,7505738,-627,540,-600,-234,400,-400,0,1,0,0,0,-394,354,-389,1534,-428,351,-418,552,1618,50,723,0,0,-1,15,-14,2045,0,0,0,0,158,158,158,88,1,0,0,1,1,-0.0057591001460988505,-0.005762648988278808,4.422357562604039,-500,500,-400,-428,351,-418,55.2,-428,351,-417,158,158,158,88
8976,7507734,-664,539,-603,-236,400,-400,0,0,-215,0,-4,-407,354,-391,1534,-454,351,-421,549,1618,50,723,0,0,-1,15,-13,2045,0,0,0,0,158,158,158,88,1,0,0,1,1,-0.005760536631696513,-0.005767153239394836,4.42239239938248,-500,500,-400,-454,351,-421,54.9,-454,351,-420,158,158,158,88
8992,7509729,-663,539,-620,-237,400,-400,0,0,-215,0,-715,-407,354,-399,1547,-454,351,-439,565,1614,0,723,0,0,-1,15,-13,2045,0,0,0,0,158,158,158,88,1,0,0,1,1,-0.0057619673758277454,-0.005771640503479056,4.422427218708816,-500,500,-400,-454,351,-439,56.5,-454,351,-438,158,158,158,88
9008,7511724,-663,541,-627,-244,400,-400,0,-1,0,4,-715,-407,356,-399,1547,-454,353,-439,562,1614,0,723,0,0,-2,16,-13,2045,0,0,0,0,158,158,158,88,1,0,0,1,1,-0.005763191884662327,-0.005777646944369801,4.422496857545274,-500,500,-400,-454,353,-439,56.2,-454,353,-437,158,158,158,88
9024,7513720,-663,541,-631,-258,400,-400,0,0,0,4,17,-407,356,-401,1557,-454,353,-441,574,1614,0,723,0,0,-2,15,-13,2045,0,0,0,0,158,158,158,88,1,0,0,1,1,-0.005764410697851656,-0.005782296817168182,4.422566531102513,-500,500,-400,-454,353,-441,57.4,-454,353,-439,158,158,158,88
9040,7515715,-697,541,-647,-261,400,-400,0,0,-180,0,-476,-418,356,-408,1566,-477,353,-457,584,1614,0,723,0,0,-2,15,-13,2045,0,0,0,0,158,158,158,88,1,0,0,1,1,-0.005765624341105915,-0.005786929376236543,4.422636169755283,-500,500,-400,-477,353,-457,58.4,-477,353,-455,158,158,158,88
9056,7517711,-697,540,-653,-264,400,-400,0,0,-180,0,-476,-418,356,-408,1573,-477,353,-457,591,1614,0,723,0,0,-1,16,-13,2045,0,0,0,0,158,158,158,88,1,0,0,1,1,-0.005767033498965257,-0.005792676461539246,4.422671006729537,-500,500,-400,-477,353,-457,59.1,-477,353,-456,158,158,158,88
9072,7519707,-696,544,-655,-274,400,-400,1,1,0,4,0,-418,357,-408,1573,-477,356,-457,588,1614,0,723,0,0,-1,15,-13,2045,0,0,0,0,158,158,158,88,1,0,0,1,1,-0.00576843691883821,-0.005797071855232029,4.422705843515582,-500,500,-400,-477,356,-457,58.8,-477,356,-456,158,158,158,88
9088,7521701,-723,544,-671,-276,400,-400,0,2,-153,4,-217,-427,357,-416,1584,-496,356,-473,601,1614,0,723,0,-1,-1,15,-13,2045,0,0,0,0,158,158,158,88,1,0,0,1,1,-0.0057698348361626415,-0.00583615743380582,4.422740444579374,-500,500,-400,-496,356,-473,60.1,-496,357,-472,158,158,158,88
9104,7523696,-723,543,-677,-281,400,-400,0,-1,-153,0,-217,-427,357,-416,1590,-496,356,-473,606,1614,0,723,0,0,-1,15,-13,2044,0,0,0,0,158,158,158,88,1,0,0,1,1,-0.00577123352138323,-0.005840433698412719,4.422775263850477,-500,500,-400,-496,356,-473,60.6,-496,356,-472,158,158,158,88
9120,7525692,-727,543,-694,-290,400,-400,0,-1,0,0,-248,-428,357,-423,1592,-499,356,-489,606,1614,0,723,0,0,0,15,-12,2044,0,0,0,0,158,158,158,88,1,0,0,1,1,-0.005771503332917253,-0.0058444937911504855,4.422775264322969,-500,500,-400,-499,356,-489,60.6,-499,356,-489,158,158,158,88
9136,7527687,-726,542,-701,-307,400,-400,0,0,0,0,-248,-428,357,-423,1604,-499,356,-489,621,1614,0,723,0,0,0,14,-12,2044,0,0,0,0,158,158,158,88,1,0,0,1,1,-0.005771772131762835,-0.005847213989029063,4.422775264604403,-500,500,-400,-499,356,-489,62.1,-499,356,-489,158,158,158,88
9152,7529683,-762,542,-705,-310,400,-400,0,0,-113,0,8,-439,357,-424,1604,-524,356,-492,618,1619,0,723,0,0,0,14,-11,2043,0,0,0,0,158,158,158,88,1,0,0,1,1,-0.005770724261932808,-0.005849931778129756,4.422775265414701,-500,500,-400,-524,356,-492,61.8,-524,356,-492,158,158,158,88
9168,7531678,-762,543,-722,-313,400,-400,0,1,-113,0,-574,-439,357,-432,1615,-524,356,-508,632,1619,0,723,0,0,0,13,-11,2043,0,0,0,0,158,158,158,88,1,0,0,1,1,-0.0057696803104952815,-0.005851317502382172,4.422775266032674,-500,500,-400,-524,356,-508,63.2,-524,356,-508,158,158,158,88
9184,7533673,-762,542,-729,-323,400,-400,0,0,0,0,-574,-439,357,-432,1615,-524,356,-508,629,1619,0,723,0,0,0,12,-10,2044,0,0,0,0,158,158,158,88,1,0,0,1,1,-0.00576731208490059,-0.005851369837641392,4.422775266991515,-500,500,-400,-524,356,-508,62.9,-524,356,-508,158,158,158,88
9200,7535669,-760,541,-731,-342,400,-400,1,-1,0,0,0,-439,357,-432,1629,-524,356,-508,646,1619,0,723,-1,0,0,12,-10,2043,0,0,0,0,158,158,158,88,1,0,0,1,1,-0.005799703180339317,-0.005851429697063546,4.4227752679823915,-500,500,-400,-524,356,-508,64.6,-523,356,-508,158,158,158,88
9216,7537664,-797,541,-747,-345,400,-400,0,0,-76,0,-229,-450,357,-439,1629,-550,356,-525,643,1619,0,723,0,0,0,12,-10,2043,0,0,0,0,158,158,158,88,1,0,0,1,1,-0.0057972666082563885,-0.005851489333616381,4.422775268969424,-500,500,-400,-550,356,-525,64.3,-550,356,-525,158,158,158,88
9232,7539660,-798,537,-753,-349,400,-400,-1,0,-76,-4,-229,-450,356,-439,1640,-550,353,-525,657,1619,0,723,0,0,-1,12,-10,2043,0,0,0,0,158,158,158,88,1,0,0,1,1,-0.005794635791997923,-0.005851750158647969,4.422810106735762,-500,500,-400,-550,353,-525,65.7,-550,353,-524,158,158,158,88
9248,7541655,-798,537,-754,-360,400,-400,0,0,0,-4,0,-450,356,-439,1640,-550,353,-525,654,1619,0,723,0,0,-1,12,-10,2043,0,0,0,0,158,158,158,88,1,0,0,1,1,-0.005792014624125041,-0.005852010030249591,4.422844927045794,-500,500,-400,-550,353,-525,65.4,-550,353,-524,158,158,158,88
9264,7543650,-798,537,-754,-379,400,-400,-1,1,0,0,0,-450,356,-439,1650,-550,353,-525,666,1619,0,723,0,0,-1,12,-11,2043,0,0,0,0,158,158,158,88,1,0,0,1,1,-0.005790716737068084,-0.005852269009359289,4.422879746824691,-500,500,-400,-550,353,-525,66.6,-550,353,-524,158,158,158,88
9280,7545645,-801,537,-770,-399,400,-400,0,1,-5,0,-233,-452,356,-447,1650,-553,353,-542,663,1619,0,723,0,0,-1,11,-11,2043,0,0,0,0,158,158,158,88,1,0,0,1,1,-0.005789423436321176,-0.0058512147687062805,4.422914566413069,-500,500,-400,-553,353,-542,66.3,-553,353,-541,158,158,158,88
9296,7547641,-801,533,-776,-400,400,-400,1,0,-5,-4,-233,-452,354,-447,1658,-553,351,-542,672,1619,0,723,0,0,-1,12,-11,2043,0,0,0,0,158,158,158,88,1,0,0,1,1,-0.005788134642154712,-0.005851475772237895,4.422949403642635,-500,500,-400,-553,351,-542,67.2,-553,351,-541,158,158,158,88
9312,7549636,-834,513,-778,-400,400,-400,0,0,-39,-569,0,-462,347,-447,1658,-576,337,-542,670,1618,0,723,0,0,-1,12,-11,2044,0,0,0,0,158,158,158,88,1,0,0,1,1,-0.005786842909844792,-0.00585172820734952,4.422984223419422,-500,344,-400,-576,337,-542,67,-576,337,-541,158,158,158,88
9328,7551631,-838,509,-779,-400,400,-400,0,0,0,6,0,-463,346,-447,1668,-579,335,-542,682,1618,15,723,0,0,-1,12,-11,2043,0,0,0,0,158,158,158,88,1,0,0,1,1,-0.0057855632952401115,-0.005851987527794423,4.423019043192844,-500,500,-400,-579,335,-542,68.2,-579,335,-541,158,158,158,88
9344,7553627,-838,509,-781,-400,400,-400,0,0,0,6,-5,-463,346,-448,1668,-579,335,-545,680,1618,15,723,0,0,-1,13,-10,2043,0,0,0,0,158,158,158,88,1,0,0,1,1,-0.0057829809356105336,-0.005853553311265951,4.423053881134112,-500,500,-400,-579,335,-545,68,-579,335,-544,158,158,158,88
9360,7555622,-838,508,-782,-400,400,-400,0,-1,0,0,-5,-463,346,-448,1680,-579,335,-545,695,1618,15,723,0,0,-1,12,-10,2043,0,0,0,0,158,158,158,88,1,0,0,1,1,-0.005780407904796198,-0.005853807556198625,4.423088701429599,-500,500,-400,-579,335,-545,69.5,-579,335,-544,158,158,158,88
9376,7557617,-838,508,-783,-400,400,-400,0,0,0,0,0,-463,346,-448,1680,-579,335,-545,692,1618,15,723,0,0,-1,13,-10,2043,0,0,0,0,158,158,158,88,1,0,0,1,1,-0.0057778440990194,-0.0058553654702577255,4.423123521911667,-500,500,-400,-579,335,-545,69.2,-579,335,-544,158,158,158,88
9392,7559612,-868,509,-783,-400,400,-400,0,0,-4,0,0,-472,346,-448,1689,-600,335,-545,703,1618,15,723,0,0,-1,13,-10,2043,0,0,0,0,158,158,158,88,1,0,0,1,1,-0.005775289426022313,-0.00585691779018376,4.423158342390712,-500,500,-400,-600,335,-545,70.3,-600,335,-544,158,158,158,88
9408,7561608,-867,509,-784,-400,400,-400,1,1,-4,0,0,-472,346,-448,1689,-600,335,-545,701,1618,15,723,0,0,0,12,-10,2043,0,0,0,0,158,158,158,88,1,0,0,1,1,-0.005772947233329313,-0.005856962108164108,4.423158343341701,-500,500,-400,-600,335,-545,70.1,-600,335,-545,158,158,158,88
9424,7563603,-868,508,-787,-400,400,-400,0,0,0,0,-5,-472,346,-449,1700,-600,335,-548,714,1618,15,723,0,0,0,12,-9,2043,0,0,0,0,158,158,158,88,1,0,0,1,1,-0.005769312983052162,-0.0058570063082071105,4.423158344813433,-500,500,-400,-600,335,-548,71.4,-600,335,-548,158,158,158,88
9440,7565598,-872,504,-788,-400,400,-400,0,0,0,-4,-5,-473,344,-449,1700,-603,333,-548,712,1618,15,723,0,0,0,12,-9,2042,0,0,0,0,158,158,158,88,1,0,0,1,1,-0.005765699478168675,-0.005857057957004476,4.423158346277535,-500,500,-400,-603,333,-548,71.2,-603,333,-548,158,158,158,88
9456,7567594,-872,504,-788,-400,400,-400,0,0,0,-4,0,-473,344,-449,1710,-603,333,-548,724,1618,15,723,0,0,0,11,-9,2043,0,0,0,0,158,158,158,88,1,0,0,1,1,-0.00576209164360164,-0.005855803801252589,4.423158347549006,-500,500,-400,-603,333,-548,72.4,-603,333,-548,158,158,158,88
9472,7569589,-876,501,-788,-400,400,-400,0,0,0,-5,0,-474,343,-449,1710,-606,331,-548,722,1618,15,723,0,0,0,11,-9,2043,0,0,0,0,158,158,158,88,1,0,0,1,1,-0.005758496928661481,-0.005854554206052362,4.423158348815545,-500,500,-400,-606,331,-548,72.2,-606,331,-548,158,158,158,88
9488,7571584,-907,500,-789,-400,400,-400,0,0,0,-5,0,-483,343,-449,1721,-627,331,-548,735,1620,45,723,0,0,0,12,-9,2042,0,0,0,0,158,158,158,88,1,0,0,1,1,-0.0057549227223368275,-0.005854612188782264,4.423158350263689,-500,500,-400,-627,331,-548,73.5,-627,331,-548,158,158,158,88
9504,7573580,-906,500,-789,-400,400,-400,0,0,0,0,0,-483,343,-449,1721,-627,331,-548,733,1620,45,723,0,0,1,12,-9,2043,0,0,0,0,158,158,158,88,1,0,0,1,1,-0.00575155743532439,-0.0058544624290883945,4.423123514915707,-500,500,-400,-627,331,-548,73.3,-627,331,-549,158,158,158,88
9520,7575575,-906,500,-789,-400,400,-400,1,0,0,0,0,-483,343,-449,1730,-627,331,-548,744,1620,45,723,0,0,1,13,-9,2042,0,0,0,0,158,158,158,88,1,0,0,1,1,-0.005748211858247916,-0.0058556137215248815,4.423088697200088,-500,500,-400,-627,331,-548,74.4,-627,331,-549,158,158,158,88
9536,7577570,-910,501,-790,-400,400,-400,0,1,0,0,0,-484,343,-449,1730,-630,331,-548,741,1620,45,723,0,0,1,13,-9,2042,0,0,0,0,158,158,158,88,1,0,0,1,1,-0.005744878607873276,-0.005856760774984414,4.423053879476731,-500,500,-400,-630,331,-548,74.1,-630,331,-549,158,158,158,88
9552,7579566,-910,497,-790,-400,400,-400,0,0,0,-4,0,-484,342,-449,1742,-630,328,-548,757,1620,45,723,0,0,1,13,-9,2043,0,0,0,0,158,158,158,88,1,0,0,1,1,-0.005741550314732954,-0.005857895951864941,4.423019044294255,-500,500,-400,-630,328,-548,75.7,-630,328,-549,158,158,158,88
9568,7581560,-911,496,-789,-400,400,-400,0,-1,0,-4,0,-484,342,-449,1742,-630,328,-548,754,1620,45,723,0,0,1,14,-9,2043,0,0,0,0,158,158,158,88,1,0,0,1,1,-0.005738234055181044,-0.005860316303933687,4.422984244197238,-500,500,-400,-630,328,-548,75.4,-630,328,-549,158,158,158,88
9584,7583555,-946,493,-789,-400,400,-400,0,-1,0,-5,0,-494,341,-449,1752,-655,326,-548,766,1620,45,723,0,0,1,14,-9,2042,0,0,0,0,158,158,158,88,1,0,0,1,1,-0.0057349375049462826,-0.005862735314027133,4.422949426636383,-500,500,-400,-655,326,-548,76.6,-655,326,-549,158,158,158,88
9600,7585551,-946,493,-789,-400,400,-400,0,0,0,-5,0,-494,341,-449,1752,-655,326,-548,764,1620,45,723,0,0,0,15,-9,2043,0,0,0,0,158,158,158,88,1,0,0,1,1,-0.005731442108785874,-0.005866623827341737,4.422949428600189,-500,500,-400,-655,326,-548,76.4,-655,326,-548,158,158,158,88
9616,7587546,-946,493,-789,-400,400,-400,0,1,0,0,0,-494,341,-449,1761,-655,326,-548,775,1620,45,723,0,0,0,15,-10,2043,0,0,0,0,158,158,158,88,1,0,0,1,1,-0.0057292446991031925,-0.005870498336870688,4.422949430041819,-500,500,-400,-655,326,-548,77.5,-655,326,-548,158,158,158,88
9632,7589541,-945,490,-789,-400,400,-400,0,0,0,-4,0,-494,339,-449,1762,-655,324,-548,774,1620,45,723,0,0,0,16,-10,2043,0,0,0,0,158,158,158,88,1,0,0,1,1,-0.005727055167356997,-0.005875643134118344,4.422949431664652,-500,500,-400,-655,324,-548,77.4,-655,324,-548,158,158,158,88
9648,7591538,-945,466,-789,-400,400,-400,0,0,0,-639,0,-494,331,-449,1771,-655,309,-548,785,1620,50,723,0,0,0,15,-10,2044,0,0,0,0,158,158,158,88,1,0,0,1,1,-0.00572486612936446,-0.005879479022317501,4.4229494330980215,-500,227,-400,-655,309,-548,78.5,-655,309,-548,158,158,158,88
9664,7593533,-950,466,-789,-400,400,-400,0,0,0,-639,0,-495,331,-449,1772,-658,309,-548,784,1620,50,723,0,0,1,15,-10,2044,0,0,0,0,158,158,158,88,1,0,0,1,1,-0.005722889101520351,-0.005883102370894271,4.422914615175878,-500,227,-400,-658,309,-548,78.4,-658,309,-549,158,158,158,88
9680,7595528,-967,467,-789,-400,400,-400,0,1,0,0,0,-500,331,-449,1780,-670,309,-548,793,1620,50,724,0,0,0,16,-11,2044,0,0,0,0,158,158,158,88,1,0,0,1,1,-0.0057219956689695105,-0.005888191850031575,4.422914616271678,-500,500,-400,-670,309,-548,79.3,-670,309,-548,158,158,158,88
9696,7597523,-968,466,-789,-400,400,-400,-1,0,0,0,0,-500,331,-449,1780,-670,309,-548,791,1620,50,724,0,0,1,15,-11,2045,0,0,0,0,158,158,158,88,1,0,0,1,1,-0.005721302586780601,-0.005891777644512938,4.422879797827579,-500,500,-400,-670,309,-548,79.1,-670,309,-549,158,158,158,88
9712,7599518,-967,466,-789,-400,400,-400,0,0,0,0,0,-500,331,-449,1789,-670,309,-548,802,1620,50,724,0,0,0,15,-12,2045,0,0,0,0,158,158,158,88,1,0,0,1,1,-0.0057216857652192255,-0.0058955491398406295,4.4228797982212305,-500,500,-400,-670,309,-548,80.2,-670,309,-548,158,158,158,88
9728,7601514,-966,466,-792,-400,400,-400,1,0,0,0,-5,-500,331,-451,1789,-670,309,-550,800,1620,50,724,0,0,0,16,-12,2045,0,0,0,0,158,158,158,88,1,0,0,1,1,-0.0057220675794523385,-0.005900584048293026,4.422879798799249,-500,500,-400,-670,309,-550,80,-670,309,-550,158,158,158,88
9744,7603509,-967,443,-793,-400,400,-400,0,-1,0,-213,-5,-500,322,-451,1798,-670,294,-550,811,1620,50,724,0,0,0,16,-12,2044,0,0,0,0,158,158,158,88,1,0,0,1,1,-0.005722455336188255,-0.0059056085892435495,4.422879799374044,-500,500,-400,-670,294,-550,81.1,-670,294,-550,158,158,158,88
9760,7605504,-967,443,-793,-400,400,-400,-1,0,0,-213,0,-500,322,-451,1798,-670,294,-550,808,1620,50,724,0,0,0,16,-12,2042,0,0,0,0,158,158,158,88,1,0,0,1,1,-0.005722856304434295,-0.005910630369035097,4.422879799943808,-500,500,-400,-670,294,-550,80.8,-670,294,-550,158,158,158,88
9776,7607499,-967,444,-793,-400,400,-400,0,1,0,0,0,-500,322,-451,1808,-670,294,-550,821,1620,50,724,0,0,0,16,-12,2042,0,0,0,0,158,158,158,88,1,0,0,1,1,-0.005723255854115988,-0.005915634382240117,4.422879800512212,-500,500,-400,-670,294,-550,82.1,-670,294,-550,158,158,158,88
9792,7609496,-967,443,-794,-400,400,-400,0,0,0,0,0,-500,322,-451,1808,-670,294,-550,819,1620,50,724,0,0,1,15,-11,2041,0,0,0,0,158,158,158,88,1,0,0,1,1,-0.005722594844725994,-0.005919157276454253,4.422844947136506,-500,500,-400,-670,294,-550,81.9,-670,294,-551,158,158,158,88
9808,7611491,-967,421,-796,-400,400,-400,0,0,0,-207,-5,-500,313,-452,1814,-670,279,-553,825,1620,52,724,0,0,1,15,-11,2040,0,0,0,0,158,158,158,88,1,0,0,1,1,-0.005721943546292861,-0.005922675313512232,4.422810128661369,-500,500,-400,-670,279,-553,82.5,-670,279,-554,158,158,158,88
9824,7613486,-967,418,-797,-400,400,-400,-1,-1,0,-5,-5,-500,312,-452,1814,-670,277,-553,823,1620,52,724,1,0,0,15,-11,2039,0,0,0,0,158,158,158,88,1,0,0,1,1,-0.005686367261459687,-0.005926387055908086,4.422810129503994,-500,500,-400,-670,277,-553,82.3,-671,277,-553,158,158,158,88
9840,7615481,-967,418,-814,-400,400,-400,0,0,0,-5,-338,-500,312,-459,1822,-670,277,-571,833,1620,52,724,0,0,0,14,-11,2038,0,0,0,0,158,158,158,88,1,0,0,1,1,-0.005685620165349812,-0.005928824772348844,4.422810130157518,-500,500,-400,-670,277,-571,83.3,-670,277,-571,158,158,158,88
9856,7617476,-967,419,-820,-400,400,-400,0,1,0,0,-338,-500,312,-459,1822,-670,277,-571,831,1620,52,724,0,0,0,14,-12,2038,0,0,0,0,158,158,158,88,1,0,0,1,1,-0.005686143059608002,-0.005931253905174036,4.4228101303022,-500,500,-400,-670,277,-571,83.1,-670,277,-571,158,158,158,88
9872,7619472,-967,415,-822,-400,400,-400,0,0,0,-4,0,-500,311,-459,1831,-670,275,-571,843,1620,52,724,0,0,0,15,-12,2037,0,0,0,0,158,158,158,88,1,0,0,1,1,-0.005686671324916724,-0.00593494823833826,4.422810130629266,-500,500,-400,-670,275,-571,84.3,-670,275,-571,158,158,158,88
9888,7621467,-966,415,-822,-400,400,-400,0,0,0,-4,0,-500,311,-459,1831,-670,275,-571,841,1620,52,724,0,0,0,14,-11,2038,0,0,0,0,158,158,158,88,1,0,0,1,1,-0.005685925500098783,-0.005937357175538584,4.422810131278643,-500,500,-400,-670,275,-571,84.1,-670,275,-571,158,158,158,88
9904,7623462,-966,415,-822,-400,400,-400,0,0,0,0,0,-500,311,-459,1840,-670,275,-571,852,1620,52,724,0,0,0,15,-11,2037,0,0,0,0,158,158,158,88,1,0,0,1,1,-0.005685189463339979,-0.005941029086665533,4.422810132108511,-500,500,-400,-670,275,-571,85.2,-670,275,-571,158,158,158,88
9920,7625457,-966,391,-826,-400,400,-400,0,0,0,-230,-5,-500,301,-461,1840,-670,259,-574,850,1620,52,724,0,0,1,15,-10,2037,0,0,0,0,158,158,158,88,1,0,0,1,1,-0.0056833995688645505,-0.005944490806184022,4.422775314069486,-500,500,-400,-670,259,-574,85,-670,259,-575,158,158,158,88
9936,7627453,-966,389,-827,-400,400,-400,0,1,0,-4,-5,-500,299,-461,1847,-670,257,-574,858,1620,52,724,0,-1,1,14,-10,2038,0,0,0,0,158,158,158,88,1,0,0,1,1,-0.00568161152968662,-0.005981417829561446,4.422740280444363,-500,500,-400,-670,257,-574,85.8,-670,258,-575,158,158,158,88
9952,7629449,-966,388,-841,-400,400,-400,0,0,0,-4,-277,-500,299,-467,1847,-670,257,-588,856,1620,52,724,0,0,0,14,-10,2038,0,0,0,0,158,158,158,88,1,0,0,1,1,-0.005679620956093122,-0.005983698683041799,4.422740281640819,-500,500,-400,-670,257,-588,85.6,-670,257,-588,158,158,158,88
9968,7631443,-967,387,-846,-400,400,-400,0,-1,0,0,-277,-500,299,-467,1855,-670,257,-588,866,1620,0,724,0,0,0,14,-10,2038,0,0,0,0,158,158,158,88,1,0,0,1,1,-0.0056776372912372055,-0.005985971620216796,4.4227402828331615,-500,500,-400,-670,257,-588,86.6,-670,257,-588,158,158,158,88
9984,7633440,-967,369,-848,-400,400,-400,0,-1,0,-167,0,-500,292,-467,1855,-670,245,-588,864,1620,0,724,0,0,0,15,-9,2038,0,0,0,0,158,158,158,88,1,0,0,1,1,-0.005674402321373135,-0.005989494877565199,4.422740284750954,-500,500,-400,-670,245,-588,86.4,-670,245,-588,158,158,158,88
10000,7635435,-966,367,-848,-400,400,-400,0,0,0,-5,0,-500,291,-467,1863,-670,243,-588,874,1620,0,724,0,0,0,15,-9,2038,0,0,0,0,158,158,158,88,1,0,0,1,1,-0.005671178549236146,-0.005993005939079901,4.422740286662175,-500,500,-400,-670,243,-588,87.4,-670,243,-588,158,158,158,88
10016,7637429,-966,367,-851,-400,400,-400,0,1,0,-5,-5,-500,291,-468,1863,-670,243,-591,872,1620,0,724,0,0,1,15,-9,2038,0,0,0,0,158,158,158,88,1,0,0,1,1,-0.005668173950884777,-0.005996307998172232,4.422705486635268,-500,500,-400,-670,243,-591,87.2,-670,243,-592,158,158,158,88
10032,7639425,-966,367,-852,-400,400,-400,0,0,0,0,-5,-500,291,-468,1871,-670,243,-591,882,1620,0,724,0,0,1,15,-8,2039,0,0,0,0,158,158,158,88,1,0,0,1,1,-0.005663918331095542,-0.005999590902304266,4.4226706522385575,-500,500,-400,-670,243,-591,88.2,-670,243,-592,158,158,158,88
10048,7641420,-966,367,-853,-400,400,-400,0,0,0,0,0,-500,291,-468,1871,-670,243,-591,880,1620,0,724,0,0,1,15,-8,2039,0,0,0,0,158,158,158,88,1,0,0,1,1,-0.005659677590370781,-0.00600286254950379,4.422635835283773,-500,500,-400,-670,243,-591,88,-670,243,-592,158,158,158,88
10064,7643415,-966,344,-853,-400,400,-400,0,0,0,-216,0,-500,281,-468,1878,-670,228,-591,889,1620,0,724,0,0,1,14,-8,2040,0,0,0,0,158,158,158,88,1,0,0,1,1,-0.005655444677715421,-0.006004862842804567,4.422601018137274,-500,500,-400,-670,228,-591,88.9,-670,228,-592,158,158,158,88
10080,7645411,-966,344,-853,-400,400,-400,0,-1,0,-216,0,-500,281,-468,1878,-670,228,-591,887,1620,0,724,0,0,1,14,-8,2041,0,0,0,0,158,158,158,88,1,0,0,1,1,-0.005651219629330603,-0.006006848603802583,4.4225661835290495,-500,500,-400,-670,228,-591,88.7,-670,228,-592,158,158,158,88
10096,7647406,-966,342,-853,-400,400,-400,0,1,0,1,0,-500,279,-468,1887,-670,227,-591,898,1620,0,724,0,0,0,14,-8,2042,0,0,0,0,158,158,158,88,1,0,0,1,1,-0.005646793595293897,-0.006009016359525364,4.422566185757518,-500,500,-400,-670,227,-591,89.8,-670,227,-591,158,158,158,88
10112,7649400,-966,341,-853,-400,400,-400,0,0,0,1,0,-500,279,-468,1887,-670,227,-591,896,1620,0,724,0,0,0,14,-9,2043,0,0,0,0,158,158,158,88,1,0,0,1,1,-0.005643624946163625,-0.006011169107708538,4.422566187440117,-500,500,-400,-670,227,-591,89.6,-670,227,-591,158,158,158,88
10128,7651397,-966,338,-853,-400,400,-400,0,-1,0,0,0,-500,278,-468,1897,-670,225,-591,909,1616,50,724,0,0,1,14,-9,2044,0,0,0,0,158,158,158,88,1,0,0,1,1,-0.00564066912507917,-0.006013110745828062,4.422531334818226,-500,500,-400,-670,225,-591,90.9,-670,225,-592,158,158,158,88
10144,7653392,-966,317,-853,-400,400,-400,0,1,0,-581,0,-500,268,-468,1897,-670,210,-591,907,1616,50,724,0,0,1,13,-10,2044,0,0,0,0,158,158,158,88,1,0,0,1,1,-0.005638970495943849,-0.0060137988276983915,4.422496516376073,-500,137,-400,-670,210,-591,90.7,-670,210,-592,158,158,158,88
10160,7655386,-966,315,-853,-400,400,-400,0,1,0,11,0,-500,267,-468,1905,-670,208,-591,917,1616,50,724,0,-1,1,13,-11,2045,0,0,0,0,158,158,158,88,1,0,0,1,1,-0.005638519053432151,-0.006049189637562779,4.422461518601385,-500,500,-400,-670,208,-591,91.7,-670,209,-592,158,158,158,88
10176,7657382,-966,314,-853,-400,400,-400,0,0,0,11,0,-500,267,-468,1905,-670,208,-591,915,1616,50,724,0,0,0,12,-12,2047,0,0,0,0,158,158,158,88,1,0,0,1,1,-0.0056390889528212095,-0.006048712826280456,4.42246151826655,-500,500,-400,-670,208,-591,91.5,-670,208,-591,158,158,158,88
10192,7659376,-966,314,-853,-400,400,-400,0,0,0,0,0,-500,267,-468,1913,-670,208,-591,924,1616,50,724,0,0,0,11,-12,2047,0,0,0,0,158,158,158,88,1,0,0,1,1,-0.005639656897799206,-0.006046993989552513,4.422461517752501,-500,500,-400,-670,208,-591,92.4,-670,208,-591,158,158,158,88
10208,7661371,-966,295,-853,-400,400,-400,0,-1,0,-170,0,-500,258,-468,1913,-670,196,-591,922,1616,50,724,0,0,1,11,-13,2048,0,0,0,0,158,158,158,88,1,0,0,1,1,-0.005641668490029719,-0.006045077613762951,4.42242669726274,-500,500,-400,-670,196,-591,92.2,-670,196,-592,158,158,158,88
10224,7663366,-966,295,-853,-400,400,-400,0,0,0,-170,0,-500,258,-468,1913,-670,196,-591,921,1616,50,724,0,0,1,11,-14,2048,0,0,0,0,158,158,158,88,1,0,0,1,1,-0.005644914810481704,-0.006043167512445769,4.422391876200105,-500,500,-400,-670,196,-591,92.1,-670,196,-592,158,158,158,88
10240,7665362,-966,296,-853,-400,400,-400,0,1,0,-170,0,-500,258,-468,1921,-670,196,-591,931,1616,50,724,0,-1,0,11,-15,2048,0,0,0,0,158,158,158,88,1,0,0,1,1,-0.0056491818663279205,-0.006076207385841016,4.422391677150984,-500,500,-400,-670,196,-591,93.1,-670,197,-591,158,158,158,88
10256,7667359,-966,278,-852,-400,400,-400,0,0,0,-187,0,-500,249,-468,1929,-670,184,-591,941,1616,50,724,0,0,0,11,-15,2049,0,0,0,0,158,158,158,88,1,0,0,1,1,-0.005653426160116084,-0.006074409647068141,4.422391674765287,-500,491,-400,-670,184,-591,94.1,-670,184,-591,158,158,158,88
10272,7669351,-966,277,-852,-400,400,-400,0,-1,0,-187,0,-500,249,-468,1929,-670,184,-591,939,1616,50,724,0,0,0,11,-16,2049,0,0,0,0,158,158,158,88,1,0,0,1,1,-0.005658894205178903,-0.006072617999578248,4.42239167176689,-500,489,-400,-670,184,-591,93.9,-670,184,-591,158,158,158,88
10288,7671349,-965,275,-850,-400,400,-400,0,0,0,7,5,-500,248,-467,1937,-670,183,-588,948,1619,0,724,0,0,0,11,-16,2049,0,0,0,0,158,158,158,88,1,0,0,1,1,-0.0056643436171480675,-0.006070832457146979,4.422391668778035,-500,500,-400,-670,183,-588,94.8,-670,183,-588,158,158,158,88
10304,7673343,-966,275,-848,-400,400,-400,0,0,0,7,5,-500,248,-467,1937,-670,183,-588,946,1619,0,724,0,0,0,10,-16,2050,0,0,0,0,158,158,158,88,1,0,0,1,1,-0.0056697674752492055,-0.006067809440990407,4.422391665622801,-500,500,-400,-670,183,-588,94.6,-670,183,-588,158,158,158,88
10320,7675337,-966,253,-834,-400,400,-400,0,0,0,-238,276,-500,237,-461,1946,-670,168,-574,958,1619,0,724,0,0,0,10,-16,2050,0,0,0,0,158,158,158,88,1,0,0,1,1,-0.005675172885317333,-0.006064796706655211,4.422391662477796,-500,415,-400,-670,168,-574,95.8,-670,168,-574,158,158,158,88
